Stop ID,Stop Name,Stop Latitude,Stop Longitude
1,Copou,47.19052,27.55848
2,Stadion,47.18646,27.56235
3,George Cosbuc,47.18458,27.56391
4,Triumf,47.18056,27.56736
5,Universitate,47.17496,27.57204
6,Piata M. Eminescu,47.16888,27.57679
7,Piata Unirii,47.165551,27.580803
8,Filarmonica,47.16414,27.58542
9,Tg. Cucu,47.16472,27.59092
10,Podu de Fier,47.16654,27.59465
11,Padurii,47.16321,27.5969
12,Ateneu,47.16256058,27.60512212
13,Dr. Savini,47.16002786,27.61342973
14,Flora,47.15924156,27.61879812
15,Tatarasi Sud,47.15628843,27.6238705
16,Pod Metalurgie,47.15207814,27.6215103
17,C.F.S.II,47.14892326,27.62052766
18,Piata Ing. V. Sahleanu,47.14556411,27.62033247
19,C.F.S.,47.14594,27.61752
20,Baza 3,47.146797,27.61115017
21,Podu Ros (1),47.15093309,27.58930349
22,Sala Polivalenta (Sporturilor),47.15386617,27.58734652
23,Palatul Culturii,47.15922758,27.58711123
24,Muzeul Municipal "Regina Maria",47.16139161,27.59414142
25,Piata Mihai Eminescu,47.16865733,27.57686234
26,Pacurari,47.17292,27.53368
27,OMV Pacurari,47.17360859,27.53860211
28,Moara 1 Mai,47.17425422,27.55230072
29,Petru Poni,47.173634,27.55908886
30,Blocuri Pacurari,47.17086556,27.57091058
31,Piata Independentei,47.16791686,27.58082524
32,Bucsinescu,47.15848857,27.60162717
33,Tudor Vladimirescu,47.15647,27.60344
34,Casa Sindicatelor,47.14666587,27.59279872
35,Frigorifer,47.14134074,27.60017077
36,Camine C.U.G.,47.13713332,27.60451609
37,Continental,47.13684733,27.60020673
38,Liceul C.U.G.,47.13634296,27.59384766
39,Blocuri Cetatuia,47.13550826,27.58675972
40,C.U.G. I,47.13410093,27.57600344
41,tesatura,47.14915672,27.59531376
42,Pacurari,47.17308338,27.53370944
43,Blocuri Dancu,47.15238728,27.65500939
44,Rond vechi Dancu,47.15293514,27.64847761
45,Hotel Amadeo,47.15265046,27.64285556
46,Phoenix,47.15191646,27.63644072
47,I.P.A.,47.15377262,27.63258904
48,Vointa,47.16786484,27.57301583
49,Str. Bacinschi,47.16825281,27.56849347
50,Gara,47.16629,27.57052
51,Canta,47.17238,27.53737
52,Sergent Grigore Ioan,47.17321321,27.54526171
53,Octav Bancila,47.17094426,27.56152999
54,Pasaj Alexandru cel Bun,47.16143,27.57312
55,Podul de Piatra,47.15655732,27.57417443
56,Gara Internationala,47.14996091,27.57759371
57,Bazar,47.13404182,27.58037378
58,Piata Nicolina,47.14644895,27.5907438
59,Pleiada,47.13455,27.61028
60,Spitalul nr. 7,47.13051324,27.6140734
61,Centrofarm,47.12752912,27.61642474
62,Hanul Trei Sarmale,47.12384327,27.62217884
63,scoala Generala nr. 2,47.1213336,27.62516737
64,Plopii fara sot,47.11901483,27.62975425
65,Bucium,47.11678873,27.63191138
66,Pasaj ACB,47.16127,27.57337
67,Pod Cantemir,47.154003,27.58375
68,Podu Ros (2),47.15030367,27.58861382
69,Bis. Lipoveneasca,47.15262542,27.58689803
70,C.T.P. - Sectia nr. 1,47.15397,27.6028
71,Sala Polivalenta,47.15384709,27.58717431
72,Podu Ros (3),47.14976214,27.58595917
73,Pod Nicolina,47.14271786,27.58029878
74,Tudor Neculai,47.13921645,27.57835022
75,Biserica inaltarea Domnului,47.12851136,27.56866807
76,Tehnopolis,47.12509431,27.5672372
77,Carrefour ERA,47.16739,27.51385
78,Brico Depot ERA,47.17006382,27.51283866
79,Popas Pacurari,47.1724089,27.52018607
80,Ideo,47.17258089,27.52364856
81,Pasaj Nicolina,47.14473479,27.58132206
82,Spitalul de Recuperare,47.15002883,27.57455355
83,Mircea cel Batran,47.15608732,27.57042393
84,Piata Alexandru cel Bun,47.16026999,27.57072184
85,Piata Alexandru cel Bun II,47.16196497,27.56960285
86,Minerva,47.16329843,27.56461304
87,Zimbru,47.16667032,27.55548744
88,Bicaz,47.16679,27.55001
89,Columnei,47.16664993,27.54444591
90,Dacia,47.16882472,27.5408178
91,Familial,47.1618644,27.56712555
92,C.E.T.,47.14796,27.60216
93,Piata Ing. Virgil Sahleanu,47.14560146,27.61883766
94,C.F.S. II,47.14794008,27.62023163
95,Blocuri Metalurgie,47.1529303,27.62208143
96,Tatarasi Nord,47.16136752,27.60901943
97,Aeroport,47.17652997,27.61748512
98,Tutora,47.14334593,27.64348871
99,Tehnoton,47.14327515,27.63578121
100,Fabrica de Ulei,47.14406312,27.62969582
101,Breazu,47.2095358,27.53157064
102,Statiunea Viticola,47.20277829,27.534626
103,Seminarul Teologic,47.20091668,27.53771906
104,Moldomobila,47.14484941,27.60635197
105,Liceul de Constructii,47.1430695,27.60253275
106,Somaco,47.14346916,27.6500505
107,Boromir,47.14185697,27.65831378
108,Caretta,47.13848954,27.66699587
109,Vinia,47.13596595,27.67333853
110,Twinkle Star,47.16455063,27.56568241
111,Policlinica Recuperare,47.15185347,27.57244495
112,Frumoasa,47.13951014,27.58520344
113,Clopotari,47.13640522,27.58158378
114,Piata C.U.G.,47.13477417,27.57737842
115,Piata Dacia,47.16945389,27.54981038
116,Spitalul Sf. Maria,47.16012,27.60947
117,Cimitirul Evreiesc,47.17470124,27.54422338
118,Gara Socola,47.13839593,27.60625206
119,Rond tutora,47.14342,27.64338
120,scoala Ion Ghica,47.15211436,27.59860017
121,Vama,47.14709112,27.582039
122,Liceul Agricol,47.19862824,27.5448744
123,Liceul Pedagogic,47.19969782,27.54175231
124,Muzeul Mihail Sadoveanu,47.1959979,27.55414613
125,Piata Sf. Anton de Padova,47.16815216,27.5583883
126,Str. Podgoriilor,47.19733955,27.55084366
127,Antibiotice,47.17734056,27.48900063
128,Str. 1 Decembrie V.Lupului,47.17386523,27.50669785
129,Troita V.Lupului,47.17519509,27.4988383
130,Str. Conductelor,47.16453204,27.59615153
131,Cimitirul Sf. Petru si Pavel,47.17306523,27.59897254
132,Telegondola 1,47.17849415,27.59806998
133,Telegondola 2,47.18108487,27.60285035
134,Ciric,47.17679,27.60734
135,Spital Pascanu,47.16752,27.60001
136,Sfantul Lazar,47.1556,27.59036
137,Spital Pascanu,47.16712,27.59835
138,Complex Roua Residence,47.18019,27.59798
139,Str. Locotenent Popovici,47.15714,27.62734
140,Str. Aviatiei,47.15897,27.63014
141,Str. Motilor,47.16057,27.63022
142,Str. Mistretului,47.16216,27.63048
143,Str. Aeroportului,47.161989,27.62645
144,Str. A. Obreja,47.1602,27.62661
145,Sos. Voinesti,47.144513,27.568845
146,Centrul Maternal Maternus,47.147969,27.561951
147,Complex Sun City,47.145841,27.549494
148,Str. Viilor,47.145117,27.539313
149,Blocuri sorogari,47.197727,27.577273
150,Str. Moara de Vant,47.17583,27.59816
151,Piata Independentei,47.1691,27.57802
152,Complex Class Residence,47.14691,27.556
153,Garaj,47.1522,27.60333
154,Depou D,47.17102,27.53593
155,Depou G,47.16406,27.57268
156,Colegiul Economic Administrativ,47.166642,27.589745
157,Str. Mihai Eminescu,47.168997,27.588197
158,Str. Nicolae Balcescu,47.172812,27.583941
159,Bojdeuca Ion Creanga,47.174474,27.581932
160,Centrul Rezidential pentru Mame si Copii,47.176618,27.579182
161,Str. Lascar Catargi,47.178781,27.575445
162,Str. Mihai Costachescu,47.18311,27.570283
163,Exclusive Residence,47.186037,27.567398
164,Targusor Copou,47.188241,27.565273
165,Str. Caprelor,47.192518,27.562622
166,Str. Ursulea,47.203416,27.552342
167,Pod Cacaina,47.2036,27.55791
168,Bd. Chimiei (sta≈£ie temporara),47.15089,27.6329
169,Citadin,47.15943,27.60053
170,Pod Sf. Ioan,47.15218,27.64165
171,Bulevardul C.A.Rosetti,47.17494,27.58808
172,Pod Aroneanu,47.19349,27.59698
173,Str Mihai Eminescu,47.16908,27.58808
174,Str. Nicolaie Balcescu,47.17291,27.58379
175,Bojdeuca Ion Creanga,47.17453,27.58194
176,Centrul Rezidential pentru Mame si Copii,47.1767,27.57895
177,Str Lascar Catargi,47.17879,27.57542
178,Carolina - Vanatori,47.2213,27.54691
179,Str. Firmelor - Holboca,47.14983,27.67705
180,Calea Tomesti - Holboca,47.14833,27.6865
181,Str. Cornelia Emilian,47.10725,27.63904
182,Str. Boiangiu,47.09972,27.64959
183,Str. Theodor Rosetti,47.09431,27.65107
184,Motel Bucium,47.09067,27.65008
185,Pod de Fier,47.16712735,27.59440362
186,Str Albinet,47.1756061,27.58767664
187,Troita Sorogari,47.19334,27.59584
188,Zen Residence,47.12977,27.60581
189,Str. Visan,47.12516,27.60194
190,Podu Ros,47.15204,27.58637
191,Podu Ros (4),47.15205,27.58635
